[{"name":"Hrabina Bistro","lat":50.070065,"lon":19.920707,"link":"https://goo.gl/maps/b3f57KpaqLeq3Sa89"},{"name":"Poranki","lat":50.050772351560894,"lon":19.94897159628586,"link":"https://goo.gl/maps/b3f57KpaqLeq3Sa89"},{"name":"xx","lat":50.061643,"lon":19.937988,"link":"https://www.google.com/maps/place/50%C2%B003'41.9%22N+19%C2%B056'16.8%22E/@50.0616464,19.9354131,17z/data=!3m1!4b1!4m13!1m8!3m7!1s0x471644c0354e18d1:0xb46bb6b576478abf!2zS3Jha8Ozdw!3b1!8m2!3d50.0646501!4d19.9449799!16zL20vMDQ5MXk!3m3!8m2!3d50.061643!4d19.937988?entry=ttu"},{"name":"Type","lat":51.10816,"lon":17.036486,"link":"https://www.google.com/maps/place/51%C2%B006'29.4%22N+17%C2%B002'11.4%22E/@51.1081616,17.0349804,17z/data=!3m1!4b1!4m4!3m3!8m2!3d51.1081596!4d17.0364857?entry=ttu","type":"Sushi"},{"name":"Tajfun","lat":51.11651449638146,"lon":17.032800499224486,"link":"https://www.google.com/maps/place/Tajfun/@51.1146728,17.0319646,16.42z/data=!4m6!3m5!1s0x470fe95aa7cfe689:0x3ae8b213ca56c293!8m2!3d51.1163111!4d17.0327463!16s%2Fg%2F11h5w8gtfm?entry=ttu","type":"Sushi"},{"name":"Iggy Pizza","lat":51.11128703992831,"lon":17.0336041966377,"link":"https://www.google.com/maps/place/Iggy+Pizza/@51.1118976,17.0318038,16.42z/data=!4m6!3m5!1s0x470fc275f20a08f7:0x9f567aefe7380ecc!8m2!3d51.1110019!4d17.0338081!16s%2Fg%2F11fzjhs1hk?entry=ttu","type":"Pizza"},{"name":"Falla","lat":51.10214272466214,"lon":17.03482580267921,"link":"https://www.google.com/maps/place/FALLA+Wroc%C5%82aw/@51.1043785,17.0321735,16.42z/data=!4m6!3m5!1s0x470fc3e3d364509b:0xc50db55c0b1db439!8m2!3d51.1018375!4d17.0347681!16s%2Fg%2F11g3xcyg88?entry=ttu","type":"Domowa"},{"name":"Charlotte","lat":52.23092019661376,"lon":21.02195508179552,"link":"https://www.google.com/maps/place/Charlotte+Bouillon/@52.2307381,21.0205726,16.42z/data=!3m1!5s0x471eccf7247833e5:0xea1963cb3ae74d41!4m6!3m5!1s0x471ecd66e20125c5:0xf754a608cb58bd47!8m2!3d52.2306471!4d21.0219716!16s%2Fg%2F11j07wxhz_?entry=ttu","type":"Domowa"},{"name":"Browary Warszawskie","lat":52.23571018422013,"lon":20.987307774205398,"link":"https://www.google.com/maps/place/Browary+Warszawskie/@52.2464692,20.9937923,14.38z/data=!3m1!5s0x471eccf7247833e5:0xea1963cb3ae74d41!4m14!1m7!3m6!1s0x471ecd66e20125c5:0xf754a608cb58bd47!2sCharlotte+Bouillon!8m2!3d52.2306471!4d21.0219716!16s%2Fg%2F11j07wxhz_!3m5!1s0x471ecd4dae05c0bf:0x92ac74f07674cb41!8m2!3d52.2349272!4d20.9871011!16s%2Fg%2F11fdxtsj5b?entry=ttu","type":"Pizza"},{"name":"EFES KEBAB","lat":52.23249136232428,"lon":21.054817927311966,"link":"https://www.google.com/maps/place/EFES+KEBAB/@52.2392815,21.0362228,14.38z/data=!3m1!5s0x471ecda9a44498e3:0x20e951d6707c2dff!4m14!1m7!3m6!1s0x471ecd66e20125c5:0xf754a608cb58bd47!2sCharlotte+Bouillon!8m2!3d52.2306471!4d21.0219716!16s%2Fg%2F11j07wxhz_!3m5!1s0x471ecda9a10cc009:0xa482d6e565b4feed!8m2!3d52.2317128!4d21.0555116!16s%2Fg%2F1tfpng21?entry=ttu","type":"Domowa"},{"name":"LUX MED","lat":52.24403976204247,"lon":21.084740288239477,"link":"https://www.google.com/maps/place/LUX+MED/@52.2387952,21.0536955,14.38z/data=!3m1!5s0x471ecdbe20ae50b1:0x1b14aeea95b0eb78!4m14!1m7!3m6!1s0x471ecd66e20125c5:0xf754a608cb58bd47!2sCharlotte+Bouillon!8m2!3d52.2306471!4d21.0219716!16s%2Fg%2F11j07wxhz_!3m5!1s0x471eccf3a8bfc811:0x3ad9fc7e3febe90b!8m2!3d52.2433095!4d21.0849406!16s%2Fg%2F1tp260pt?entry=ttu","type":"Domowa"},{"name":"PR","lat":51.77696420522602,"lon":19.454658639667517,"link":"https://www.google.com/maps/place/Pasa%C5%BC+R%C3%B3%C5%BCy/@51.7783927,19.457251,14.08z/data=!4m15!1m8!3m7!1s0x471bcb24754556af:0xcb7cae639b21dbac!2zxYHDs2TFug!3b1!8m2!3d51.7592485!4d19.4559833!16zL20vMGM2Zno!3m5!1s0x471bcad0a606c3ed:0x976e7cb478088a79!8m2!3d51.7758747!4d19.4546521!16s%2Fg%2F11c0rqyggn?entry=ttu","type":"Sushi"},{"name":"CCM","lat":51.78182613013495,"lon":19.453118986351615,"link":"https://www.google.com/maps/place/Cinema+City+Manufaktura/@51.7783927,19.457251,14.08z/data=!3m1!5s0x471bcac4fe22aa9d:0x2b146446e6ccb822!4m15!1m8!3m7!1s0x471bcb24754556af:0xcb7cae639b21dbac!2zxYHDs2TFug!3b1!8m2!3d51.7592485!4d19.4559833!16zL20vMGM2Zno!3m5!1s0x471bcac4f07adb65:0xfb636617e764a766!8m2!3d51.7808343!4d19.4487609!16s%2Fg%2F1thxpd5l?entry=ttu","type":"Pizza"}]